{
    "jsonSystemSettings":{
        "apiKeys":{
          "api_key":"e1f10a1e78da46f5b10a1e78da96f525",
          "map_key":"pk.eyJ1Ijoid2VhdGhlciIsImEiOiJjbHAxbHNjdncwaDhvMmptcno1ZTdqNDJ0In0.iywE3NefjboFg11a11ON0Q",
          "traf_key":"GFx-UPCU3yJs5SyIClMNu-1qO40vILZw_3y1Oc3wfS8"
        },
        "systemLocation":"Long Island",
        "appearanceSettings":{
            "nationalConfig":false,
            "iconSet":"2010",
            "providerName":"Mist Digital Cable",
            "startupTime":10000,
            "crawlMode":"both",
            "adMessage":[
              "This advertising space could be yours! Contact colster on Discord.",
              "This is the rewritten Weatherscan simulator, soon to debut on v2.weatherscan.net. This simulator is still in development, if you happen to catch any bugs, please let us know in the live chat!",
              "Become a streamer today on the biggest up-and-coming independent livestreaming service, Mist Streaming! live.mistwx.com.....live.mistwx.com."
            ],
            "providerType":"custom",
            "providerImage":"mistdc",
            "adImages":[
              {
                "type": "slide",
                "value": "airport",
                "adImage": "Delta"
              },
              {
                "type": "slide",
                "value": "travel",
                "adImage": "Delta"
              }
            ],
            "version":"0",
            "backgroundImage":"wxscan_default_bg",
            "condensedCrawlFont": false,
            "weatherReadyLogo": 3
        },
        "audioSettings":{
            "enableMusic":true,
            "shuffle":false,
            "randomStart":true,
            "narrations":true,
            "order":[1, 2, 3, 4, 5, 6, 7, 8, 9, 10, 11, 12, 13, 14, 15, 16, 17, 18, 19, 20, 21, 22, 23, 24, 25, 26, 27, 28, 29, 30, 31, 32, 33],
            "cantoreNarrations":false
        },
        "packageSettings":["forecast","health","airport","traffic","minicoreone","extralocal","travel", "beach", "golf", "international"],
        "severePackageSettings":["severeA","severeB"],
        "LBar": {
          "ccTicker":{
            "airports":[
              {"airportName": "Kennedy International Arpt.", "iataCode": "JFK"},
              {"airportName": "LaGuardia Airport", "iataCode": "LGA"},
              {"airportName": "Newark International Arpt.", "iataCode": "EWR"}
            ],
	"cities":[
	  {"locationName": "Jersey City", "locationID": "USNJ0234:1:US", "lat": "40.7178", "lon": "-74.0431"},
	  {"locationName": "Ridgewood", "locationID": "USNJ0442:1:US", "lat": "40.9820", "lon": "-74.1132"},
	  {"locationName": "Newark", "locationID": "USNY0119:1:US", "lat": "40.692", "lon": "-74.168"},
	  {"locationName": "Central Park", "locationID": "USNY0998:1:US", "lat": "40.7812", "lon": "-73.9665"},
	  {"locationName": "Coney Island", "locationID": "USNY0158:1:US", "lat": "40.5749", "lon": "-73.9850"},
	  {"locationName": "Peekskill", "locationID": "USNY1109:1:US", "lat": "41.2901", "lon": "-73.9204"},
	  {"locationName": "Hempstead", "locationID": "USNY0644:1:US", "lat": "40.7062", "lon": "-73.6187"},
	  {"locationName": "Brooklyn", "locationID": "USNY0176:1:US", "lat": "40.6782", "lon": "-73.9442"},
	  {"locationName": "Jones Beach", "locationID": "USNY1149:1:US", "lat": "40.5965", "lon": "-73.5110"},
	  {"locationName": "Stony Point", "locationID": "USNY1414:1:US", "lat": "41.2295", "lon": "-73.9871"}
	],
	"travelCities":[
	  {"locationName": "Albany", "locationID": "KALB", "lat": "42.6526", "lon": "-73.7562"},
	  {"locationName": "Atlantic City, NJ", "locationID": "KACY", "lat": "39.3637", "lon": "-74.4291"},
	  {"locationName": "Block Island, RI", "locationID": "KBID", "lat": "41.1681", "lon": "-71.5778"},
	  {"locationName": "Hartford, CT", "locationID": "KBDL", "lat": "41.9389", "lon": "-72.6832"},
	  {"locationName": "Hunter Mountain", "locationID": "USNY0700:1:US", "lat": "42.2045", "lon": "-74.2104"},
	  {"locationName": "Marthas Vineyard, MA", "locationID": "KMVY", "lat": "41.3931", "lon": "-70.6143"},
	  {"locationName": "Pocono Mountain, PA", "locationID": "KMPO", "lat": "41.1370", "lon": "-75.3800"}
            ]
          },
          "locations": {
            "autoFind": false,
            "maxCities": 3,
            "type": "rotate",
            "cities": [
              {
                "locationName":"Islip",
                "lat":"40.7961",
                "lon":"-73.1006",
                "obsName":"Islip",
                "locationID":"KISP"
              },
              {
                "locationName":"Central Park",
                "lat":"40.7833",
                "lon":"-73.9666",
                "obsName":"Central Park",
                "locationID":"KNYC"
              }
            ]
          },
          "radar": {
            "legend": false,
            "lat": "40.7961",
            "lon": "-73.1006",
            "auto": false,
            "zoom": 6,
            "radarCities": [
              {"locationName": "Islip", "dotTopPos": "97", "dotLeftPos": "235", "nameTopMargin":"-7", "nameLeftMargin":"28"},
              {"locationName": "New York", "dotTopPos": "111", "dotLeftPos": "156", "nameTopMargin":"26", "nameLeftMargin":"-104"},
              {"locationName": "Stony Point", "dotTopPos": "47", "dotLeftPos": "159", "nameTopMargin":"-26", "nameLeftMargin":"27"}
            ]
          }
        },
        "dataMaps":{
          "topPos":"78",
          "leftPos":"-30",
          "zoom":"3.3"
        },
        "mainCity":{
            "autoFind":false,
            "locationName":"Islip",
            "bulletinName":"Southwest Suffolk County",
            "lat": "40.7961357",
            "lon": "-73.1006651",
            "obsName":"Islip",
            "locationID":"KISP",
            "almanacLocationName":"Islip",
            "introBG":"long_island_bg",
            "upNextBG":"ocean_bg",
            "slidesBG":"core_ocean_bg",
            "radar": {
              "lat":"40.7961357",
              "lon":"-73.1006651",
              "auto":false,
              "zoom":8,
              "satCoords":[-79.9972, 40.4387],
              "radarCities": [
                {"locationName": "Westerly", "dotTopPos": "302", "dotLeftPos": "1273", "nameTopMargin":"-50", "nameLeftMargin":"-41"},
                {"locationName": "Newburgh", "dotTopPos": "235", "dotLeftPos": "453", "nameTopMargin":"27", "nameLeftMargin":"-105"},
                {"locationName": "Stony Point", "dotTopPos": "361", "dotLeftPos": "489", "nameTopMargin":"27", "nameLeftMargin":"-121"},
                {"locationName": "Greenwich", "dotTopPos": "434", "dotLeftPos": "602", "nameTopMargin":"-9", "nameLeftMargin":"43"},
                {"locationName": "Islip", "dotTopPos": "526", "dotLeftPos": "792", "nameTopMargin":"-12", "nameLeftMargin":"37"},
                {"locationName": "Mattituck", "dotTopPos": "446", "dotLeftPos": "1015", "nameTopMargin":"-66", "nameLeftMargin":"-27"},
                {"locationName": "Hampton Bays", "dotTopPos": "491", "dotLeftPos": "995", "nameTopMargin":"57", "nameLeftMargin":"-26"},
                {"locationName": "Montauk Pt.", "dotTopPos": "402", "dotLeftPos": "1246", "nameTopMargin":"32", "nameLeftMargin":"-47"},
                {"locationName": "New York", "dotTopPos": "567", "dotLeftPos": "496", "nameTopMargin":"-44", "nameLeftMargin":"-223"},
                {"locationName": "Mineola", "dotTopPos": "544", "dotLeftPos": "596", "nameTopMargin":"35", "nameLeftMargin":"-2"},
                {"locationName": "New Haven", "dotTopPos": "329", "dotLeftPos": "868", "nameTopMargin":"-53", "nameLeftMargin":"-88"}
              ],
              "radarIcons":[
                {"type":"interstateSign","text":"95", "topPos":"297","leftPos":"1072"},
                {"type":"stateHwySign","text":"27", "topPos":"442","leftPos":"104"},
                {"type":"interstateSign","text":"84", "topPos":"270","leftPos":"650"},
                {"type":"interstateSign","text":"287", "topPos":"433","leftPos":"325"},
                {"type":"interstateSign","text":"95", "topPos":"705","leftPos":"269"},
                {"type":"airplane","text":"", "topPos":"500","leftPos":"512"},
                {"type":"airplane","text":"", "topPos":"560","leftPos":"395"},
                {"type":"airplane","text":"", "topPos":"569","leftPos":"538"}
              ]
            }
        },
        "extraCity": {
            "autoFind": false,
            "maxCities": 3,
            "cities": [
                {
                    "locationName": "Poughkeepsie",
                    "bulletinName": "Poughkeepsie Area",
                    "lat": "41.7056",
                    "lon": "-73.9284",
                    "obsName": "Hudson Valley Arpt.",
                    "locationID": "KPOU",
                    "upNextBG": "forest_bg",
                    "slidesBG": "core_forest_bg",
                    "radar": {
                        "lat": "41.7056",
                        "lon": "-73.9284",
                        "auto": false,
                        "zoom": 7.2,
                        "satCoords": [-79.9972, 40.4387],
                        "radarCities": [
                            {"locationName": "Albany", "dotTopPos": "290", "dotLeftPos": "835", "nameTopMargin": "-11", "nameLeftMargin": "-179"},
                            {"locationName": "Boston", "dotTopPos": "368", "dotLeftPos": "1386", "nameTopMargin": "-11", "nameLeftMargin": "-179"},
                            {"locationName": "Binghamton", "dotTopPos": "429", "dotLeftPos": "378", "nameTopMargin": "-11", "nameLeftMargin": "43"},
                            {"locationName": "Hartford", "dotTopPos": "507", "dotLeftPos": "1066", "nameTopMargin": "-11", "nameLeftMargin": "43"},
                            {"locationName": "Bridgeport", "dotTopPos": "640", "dotLeftPos": "953", "nameTopMargin": "-11", "nameLeftMargin": "43"},
                            {"locationName": "Newburgh", "dotTopPos": "569", "dotLeftPos": "796", "nameTopMargin": "-11", "nameLeftMargin": "-253"},
                            {"locationName": "New York", "dotTopPos": "745", "dotLeftPos": "786", "nameTopMargin": "-11", "nameLeftMargin": "-239"},
                            {"locationName": "Scranton", "dotTopPos": "588", "dotLeftPos": "428", "nameTopMargin": "-11", "nameLeftMargin": "-216"}
                        ],
                        "radarIcons": [
                            {"type": "interstateSign", "text": "90", "topPos": "321", "leftPos": "867"},
                            {"type": "interstateSign", "text": "88", "topPos": "336", "leftPos": "544"},
                            {"type": "usHwySign", "text": "11", "topPos": "314", "leftPos": "318"},
                            {"type": "usHwySign", "text": "9", "topPos": "405", "leftPos": "801"},
                            {"type": "interstateSign", "text": "91", "topPos": "321", "leftPos": "1043"},
                            {"type": "usHwySign", "text": "206", "topPos": "645", "leftPos": "604"}
                        ]
                    }
                },
                {
                    "locationName": "Riverhead",
                    "bulletinName": "Northeast Suffolk County",
                    "lat": "40.928333",
                    "lon": "-72.662222",
                    "obsName": "Suffolk Arpt.",
                    "locationID": "KFOK",
                    "upNextBG": "neighborhood_bg",
                    "slidesBG": "core_neighborhood_bg",
                    "radar": {
                        "lat": "40.928333",
                        "lon": "-72.662222",
                        "auto": false,
                        "zoom": 7.2,
                        "satCoords": [-79.9972, 40.4387],
                        "radarCities": [
                            {"locationName": "Philadelphia", "dotTopPos": "745", "dotLeftPos": "281", "nameTopMargin": "-11", "nameLeftMargin": "43"},
                            {"locationName": "Trenton", "dotTopPos": "665", "dotLeftPos": "351", "nameTopMargin": "-11", "nameLeftMargin": "43"},
                            {"locationName": "Stroudsburg", "dotTopPos": "506", "dotLeftPos": "256", "nameTopMargin": "-11", "nameLeftMargin": "43"},
                            {"locationName": "New York", "dotTopPos": "572", "dotLeftPos": "501", "nameTopMargin": "-11", "nameLeftMargin": "43"},
                            {"locationName": "Providence", "dotTopPos": "321", "dotLeftPos": "1060", "nameTopMargin": "-11", "nameLeftMargin": "43"},
                            {"locationName": "Hartford", "dotTopPos": "321", "dotLeftPos": "794", "nameTopMargin": "-11", "nameLeftMargin": "43"},
                            {"locationName": "New Haven", "dotTopPos": "437", "dotLeftPos": "746", "nameTopMargin": "-11", "nameLeftMargin": "43"},
                            {"locationName": "Poughkeepsie", "dotTopPos": "337", "dotLeftPos": "540", "nameTopMargin": "-11", "nameLeftMargin": "-331"}
                        ],
                        "radarIcons": [
                            {"type": "interstateSign", "text": "95", "topPos": "465", "leftPos": "622"},
                            {"type": "usHwySign", "text": "206", "topPos": "437", "leftPos": "323"},
                            {"type": "interstateSign", "text": "84", "topPos": "378", "leftPos": "665"},
                            {"type": "interstateSign", "text": "78", "topPos": "572", "leftPos": "317"}
                        ]
                    }
                },
        {
            "locationName": "Central Park",
            "bulletinName": "Manhattan",
            "lat": "40.782222",
            "lon": "-73.965278",
            "obsName": "Central Park",
            "locationID": "KNYC",
            "upNextBG": "new_york_bg",
            "slidesBG": "core_bg",
            "radar": {
                "lat": "40.782222",
                "lon": "-73.965278",
                "auto": false,
                "zoom": 7.2,
                "satCoords": [-79.9972, 40.4387],
                "radarCities": [
                    {"locationName": "Philadelphia", "dotTopPos": "718", "dotLeftPos": "547", "nameTopMargin": "-11", "nameLeftMargin": "43"},
                    {"locationName": "New York", "dotTopPos": "526", "dotLeftPos": "803", "nameTopMargin": "-11", "nameLeftMargin": "43"},
                    {"locationName": "Trenton", "dotTopPos": "644", "dotLeftPos": "622", "nameTopMargin": "-11", "nameLeftMargin": "43"},
                    {"locationName": "Hartford", "dotTopPos": "296", "dotLeftPos": "1070", "nameTopMargin": "-11", "nameLeftMargin": "43"},
                    {"locationName": "Scranton", "dotTopPos": "377", "dotLeftPos": "439", "nameTopMargin": "-11", "nameLeftMargin": "43"},
                    {"locationName": "Allentown", "dotTopPos": "571", "dotLeftPos": "460", "nameTopMargin": "-60", "nameLeftMargin": "-109"}
                ],
                "radarIcons": [
                    {"type": "interstateSign", "text": "95", "topPos": "418", "leftPos": "938"},
                    {"type": "interstateSign", "text": "80", "topPos": "446", "leftPos": "280"},
                    {"type": "stateHwySign", "text": "17", "topPos": "310", "leftPos": "633"},
                    {"type": "usHwySign", "text": "206", "topPos": "452", "leftPos": "614"}
                ]
            }
        }
    ]
},
        "nearbyCities":{
            "autoFind":false,
            "cities": [
                {
                  "obsName": "Bridgeport",
                  "locationID": "USCT0019:1:US"
                },
                {
                  "obsName": "East Hampton",
                  "locationID": "USCT0058:1:US"
                },
                {
                  "obsName": "Stony Brook",
                  "locationID": "USNY1412:1:US"
                },
                {
                  "obsName": "Mineola",
                  "locationID": "USNY0926:1:US"
                },
                {
                  "obsName": "Fire Island",
                  "locationID": "USNY0495:1:US"
                },
                {
                  "obsName": "Farmingdale",
                  "locationID": "USNY0483:1:US"
                },
                {
                  "obsName": "White Plains",
                  "locationID": "USNY1590:1:US"
                },
                {
                  "obsName": "Newark",
                  "locationID": "USNJ0355:1:US"
                }
            ]
        },
        "upperDisplayCity": {
            "autoFind":false,
            "enabled":true,
            "locationName": "Islip",
            "lat": "40.7961357",
            "lon": "-73.1006651",
            "airportName": "Islip",
            "obsIcaoCode": "KISP"
        },
        "traffic": {
            "autoFind":false,
            "locationName": "Newark Area",
            "lat": "40.7315",
            "lon": "-74.1745",
            "mapIcons":{
              "zoomOut":[
                {"icon":"gardenStatePkwySign","topPos":"73","leftPos":"753"},
                {"icon":"njTurnpikeSign","topPos":"411","leftPos":"464"},
                {"icon":"interstate_78","topPos":"260","leftPos":"314"},
                {"icon":"interstate_495","topPos":"162","leftPos":"982"}
              ],
              "zoomIn":[
                {"icon":"interstate_278","topPos":"457","leftPos":"704"},
                {"icon":"interstate_78","topPos":"305","leftPos":"372"},
                {"icon":"usRoute_22","topPos":"420","leftPos":"434"},
                {"icon":"gardenStatePkwySign","topPos":"124","leftPos":"594"},
                {"icon":"interstate_287","topPos":"160","leftPos":"316"}
              ]
            },
            "zoomOut": 8.6,
            "zoomIn": 9.4,
            "routes": [
              {"from":"40.819978,-73.054172","fromStreet":"LIE WB, Nicolls Rd","to":"40.809128,-73.185315","toStreet":"Rt 454 Vets Memorial","routeIcon":"interstate_495"},
              {"from":"40.804843,-73.294668","fromStreet":"LIE WB, Commack Rd","to":"40.789009,-73.372982","toStreet":"Bagatelle Rd","routeIcon":"interstate_495"},
              {"from":"40.797834,-73.475436","fromStreet":"WB, LIE","to":"40.781829,-73.649517","toStreet":"Willis Ave","routeIcon":"northernParkway"},

              {"from":"40.5540465717122,-74.31509207700034","fromStreet":"US 1 SB, Garden State Pkwy North","to":"40.70383213668583,-74.24577104146022","toStreet":"Exit 142 A","routeIcon":"gardenStatePkwySign"},
              {"from":"40.741433816527284,-73.95407265766642","fromStreet":"Queens-Midtown Tunnel","to":"40.73655086367837,-73.85463612117739","toStreet":"Horace Harding Expy","routeIcon":"interstate_495"},
              {"from":"40.624637165206174,-74.21563545784373","fromStreet":"NJ Tpke Exit 13","to":"40.635909954044855,-74.19851695248975","toStreet":"Goethals Bridge","routeIcon":"interstate_278"}
            ]
        },
        "travel": {
          "regionalMap":{ 
            "enabled":true,
            "autoFind":false,
            "mapTop":"-1010",
            "mapLeft":"-4971",
            "cities": [
              {"locationName": "Binghamton", "lat": "42.09889", "lon":"-75.91083", "topPos":"240","leftPos":"570"},
              {"locationName": "Boston", "lat": "42.361145", "lon":"-71.057083", "topPos":"240","leftPos":"1125"},
              {"locationName": "New York", "lat": "40.730610", "lon":"-73.935242", "topPos":"361","leftPos":"859"},
              {"locationName": "Pittsburgh", "lat": "40.440624", "lon":"-79.995888", "topPos":"439","leftPos":"265"},
              {"locationName": "Philadelphia", "lat": "39.95233", "lon":"-75.16379", "topPos":"507","leftPos":"661"},
              {"locationName": " Charleston", "lat": "38.349819", "lon":"-81.632622", "topPos":"664","leftPos":"136"},
              {"locationName": "Washington", "lat": "38.889805", "lon":"-77.03637", "topPos":"654","leftPos":"483"}
            ]
          },
          "destinationForecast": [
            {"locationName":"New York City","lat":"40.730610","lon":"-73.935242"},
            {"locationName":"Chicago","lat":"41.881832","lon":"-87.623177"},
            {"locationName":"Los Angeles","lat":"34.052235","lon":"-118.243683"},
            {"locationName":"Atlanta","lat":"33.753746","lon":"-84.386330"},
            {"locationName":"Dallas","lat":"32.779167","lon":"-96.808891"},
            {"locationName":"Boston","lat":"42.361145","lon":"-71.057083"},
            {"locationName":"Orlando","lat":"28.538336","lon":"-81.379234"},
            {"locationName":"Washington, DC","lat":"38.889805","lon":"-77.009056"},
            {"locationName":"San Francisco","lat":"37.773972","lon":"-122.431297"}
          ]
        },
        "health": {
          "autoFind":false,
          "locationName": "Islip",
          "lat": "40.7961357",
          "lon": "-73.1006651",
          "obsName": "Islip",
          "locationID": "KISP"
        },
        "airport": {
          "autoFind":false,
          "mainEnabled": true,
          "main": [
            {"airportName":"Long Island MacArthur Airport","iataCode":"ISP"},
            {"airportName":"John F. Kennedy Int'l Airport","iataCode":"JFK"}
          ],
          "national": [
            {"airportName":"New York / LaGuardia","iataCode":"LGA"},
            {"airportName":"Chicago O'Hare Int'l","iataCode":"ORD"},
            {"airportName":"Los Angeles Int'l","iataCode":"LAX"},
            {"airportName":"Atlanta International","iataCode":"ATL"},
            {"airportName":"Dallas / Ft. Worth Int'l","iataCode":"DFW"},
            {"airportName":"Denver International","iataCode":"DEN"},
            {"airportName":"Boston / Logan Int'l","iataCode":"BOS"},
            {"airportName":"Salt Lake City Int'l","iataCode":"SLC"},
            {"airportName":"Miami International","iataCode":"MIA"},
            {"airportName":"Phoenix / Sky Harbor","iataCode":"PHX"},
            {"airportName":"Minneapolis - St. Paul","iataCode":"MSP"},
            {"airportName":"Washington Dulles Int'l","iataCode":"IAD"},
            {"airportName":"San Francisco Int'l","iataCode":"SFO"},
            {"airportName":"Philadelphia Int'l","iataCode":"PHL"},
            {"airportName":"Seattle - Tacoma Int'l","iataCode":"SEA"},
            {"airportName":"Lambert - St. Louis Int'l","iataCode":"STL"}
          ]
        },
        "international": {
          "map": {
            "canada": [
              {"locationName":"Dawson","lat":"64.0639","lon":"-139.4333"},
              {"locationName":"Yellowknife","lat":"62.4540","lon":"-114.3718"},
              {"locationName":"Churchill","lat":"58.7679","lon":"-94.1696"},
              {"locationName":"Churchill Falls","lat":"53.5317","lon":"-64.0064"},
              {"locationName":"Vancouver","lat":"49.2827","lon":"-123.1207"},
              {"locationName":"Edmonton","lat":"53.5461","lon":"-113.4937"},
              {"locationName":"Winnipeg","lat":"49.8954","lon":"-97.1385"},
              {"locationName":"Montreal","lat":"45.5019","lon":"-73.5674"}
            ],
            "mexico": [
              {"locationName":"Guaymas","lat":"27.9111","lon":"-110.9091"},
              {"locationName":"Monterrey","lat":"25.6866","lon":"-100.3161"},
              {"locationName":"La Paz","lat":"24.1426","lon":"-110.3128"},
              {"locationName":"Mexico City","lat":"19.4326","lon":"-99.1332"},
              {"locationName":"Cancun","lat":"21.1619","lon":"-86.8515"}
            ],
            "caribbean": [
              {"locationName":"Nassau","lat":"25.0443","lon":"-77.3504"},
              {"locationName":"Cancun","lat":"21.1619","lon":"-86.8515"},
              {"locationName":"Kingston","lat":"18.0179","lon":"-76.8099"},
              {"locationName":"San Juan","lat":"18.4153","lon":"-66.0594"},
              {"locationName":"Tegucigalpa","lat":"14.0607","lon":"-87.1825"},
              {"locationName":"Aruba","lat":"12.5211","lon":"-69.9683"}
            ],
            "southamerica": [
              {"locationName":"Manaus","lat":"-3.1190","lon":"-60.0217"},
              {"locationName":"Recife","lat":"-8.0578","lon":"-34.8829"},
              {"locationName":"Lima","lat":"-12.0467","lon":"-77.0431"},
              {"locationName":"Brasilia","lat":"-15.7975","lon":"-47.8919"},
              {"locationName":"Santiago","lat":"-33.4489","lon":"-70.6693"},
              {"locationName":"Buenos Aires","lat":"-34.6037","lon":"-58.3821"}
            ],
            "britain": [
              {"locationName":"Edinburgh","lat":"55.9533","lon":"-3.1883"},
              {"locationName":"Dublin","lat":"53.3498","lon":"-6.2603"},
              {"locationName":"Manchester","lat":"53.4808","lon":"-2.2426"},
              {"locationName":"Cork","lat":"51.8985","lon":"-8.4756"},
              {"locationName":"London","lat":"51.5072","lon":"-0.1276"}
            ],
            "europe": [
              {"locationName":"London","lat":"51.5072","lon":"-0.1276"},
              {"locationName":"Berlin","lat":"52.5200","lon":"13.4050"},
              {"locationName":"Moscow","lat":"55.7569","lon":"37.6151"},
              {"locationName":"Paris","lat":"48.8575","lon":"2.3514"},
              {"locationName":"Budapest","lat":"47.4979","lon":"19.0402"},
              {"locationName":"Madrid","lat":"40.4167","lon":"-3.7033"},
              {"locationName":"Rome","lat":"41.8967","lon":"12.4822"},
              {"locationName":"Istanbul","lat":"41.0082","lon":"28.9784"}
            ],
            "africa": [
              {"locationName":"Dakar","lat":"14.7167","lon":"-17.4677"},
              {"locationName":"Abuja","lat":"9.0563","lon":"7.4985"},
              {"locationName":"Cairo","lat":"30.0444","lon":"31.2357"},
              {"locationName":"Riyadh","lat":"24.7136","lon":"46.6753"},
              {"locationName":"Nairobi","lat":"-1.2921","lon":"36.8219"},
              {"locationName":"Luanda","lat":"-8.8147","lon":"13.2302"},
              {"locationName":"Maputo","lat":"-25.9692","lon":"32.5732"}
            ],
            "india": [
              {"locationName":"Karachi","lat":"24.8607","lon":"67.0011"},
              {"locationName":"New Delhi","lat":"28.6139","lon":"77.2088"},
              {"locationName":"Calcutta","lat":"22.5744","lon":"88.3629"},
              {"locationName":"Bombay","lat":"18.9582","lon":"72.8321"},
              {"locationName":"Madras","lat":"13.0843","lon":"80.2705"},
              {"locationName":"Yangon","lat":"16.8409","lon":"96.1735"}
            ],
            "eastasia":[
              {"locationName":"Beijing","lat":"39.9042","lon":"116.4074"},
              {"locationName":"Seoul","lat":"37.5503","lon":"126.9971"},
              {"locationName":"Tokyo","lat":"35.6764","lon":"139.6500"},
              {"locationName":"Chongqing","lat":"29.5657","lon":"106.5512"},
              {"locationName":"Shanghai","lat":"31.2304","lon":"121.4737"},
              {"locationName":"Guangzhou","lat":"23.1291","lon":"113.2644"}
            ],
            "oceania": [
              {"locationName":"Singapore","lat":"1.3521","lon":"103.8198"},
              {"locationName":"Davao","lat":"7.0647","lon":"125.6088"},
              {"locationName":"Moresby","lat":"-9.4790","lon":"147.1494"},
              {"locationName":"Suva/Fiji","lat":"-18.1266","lon":"178.4399"},
              {"locationName":"Alice Springs","lat":"-23.6980","lon":"133.8807"},
              {"locationName":"Perth","lat":"-31.9514","lon":"115.8617"},
              {"locationName":"Sydney","lat":"-33.8727","lon":"151.2057"}
            ],
            "australia": [
              {"locationName":"Port Hedland","lat":"-20.3111","lon":"118.6094"},
              {"locationName":"Townsville","lat":"-19.2599","lon":"146.8137"},
              {"locationName":"Alice Springs","lat":"-23.6980","lon":"133.8807"},
              {"locationName":"Sydney","lat":"-33.8727","lon":"151.2057"},
              {"locationName":"Bunbury","lat":"-33.3270","lon":"115.6408"},
              {"locationName":"Melbourne","lat":"-37.8136","lon":"144.9631"}
            ]
          },
          "forecast": [
            {"locationName":"Toronto","lat":"43.6532","lon":"-79.3832"},
            {"locationName":"London","lat":"51.5072","lon":"-0.1276"},
            {"locationName":"Paris","lat":"48.8575","lon":"2.3514"},
            {"locationName":"Cancun","lat":"21.1619","lon":"-86.8515"},
            {"locationName":"Tokyo","lat":"35.6764","lon":"139.6500"},
            {"locationName":"Sydney","lat":"-33.8727","lon":"151.2057"},
            {"locationName":"Rome","lat":"41.8967","lon":"12.4822"},
            {"locationName":"Vancouver","lat":"49.2827","lon":"-123.1207"},
            {"locationName":"Hong Kong","lat":"22.3193","lon":"114.1694"},
            {"locationName":"Nassau","lat":"25.0443","lon":"-77.3504"},
            {"locationName":"Amsterdam","lat":"52.3676","lon":"4.9041"},
            {"locationName":"Buenos Aires","lat":"-34.6037","lon":"-58.3821"}
          ]
        },
        "golf": {
          "autoFind":false,
          "teeTime": {
           "locationName": "Islip",
           "lat": "40.7961357",
           "lon": "-73.1006651"
          },
          "indexMap": [],
          "courses": [
            {"courseName":"Bethpage State Park Golf Course", "locationID":"USNY0119:1:US"},
            {"courseName":"Timber Point Golf Course", "locationID":"USNY0587:1:US"},
            {"courseName":"Shinnecock Hills Golf Club", "locationID":"USNY1944:1:US"}
          ]
        },
        "garden": {
          "autoFind":false,
          "locationName": "Islip",
          "lat": "40.7961357",
          "lon": "-73.1006651"
        },
        "ski": {
          "resorts": [
            {"displayName":"Belleayre Mountain", "state":"NY", "resortId":"914001"},
            {"displayName":"Brantling Ski Slopes", "state":"NY", "resortId":"315001"},
            {"displayName":"Bristol Mountain", "state":"NY", "resortId":"716001"},
            {"displayName":"Dry Hill Ski Area", "state":"NY", "resortId":"315011"},
            {"displayName":"Gore Mountain", "state":"NY", "resortId":"518005"},
            {"displayName":"Holiday Mountain", "state":"NY", "resortId":"914003"},
            {"displayName":"Kissing Bridge", "state":"NY", "resortId":"716004"},
            {"displayName":"Labrador Mountain", "state":"NY", "resortId":"607002"},
            {"displayName":"Royal Mountain", "state":"NY", "resortId":"518017"}
          ]
        },
        "beach": {
          "surfReport": {
            "buoy":"44025",
            "displayName":"30 NM S of Islip"
          },
          "coastalForecast": {
            "lat":"",
            "lon":"",
            "office":"OKX",
            "zone":"ANZ345",
            "zoneName":"South Shore Bays"
          },
          "tides": {
            "stations": [
              {"id":"8515186", "name":"Fire Island"},
              {"id":"8513398", "name":"Moriches Inlet"}
            ],
            "almanac": {
              "obsName":"Long Island",
              "locationID":"KISP"
            }
          }
        }
    }
}